{"type":"FeatureCollection","features":[{"type":"Feature","id":2,"properties":{"name":"Dwinelle"},"geometry":{"type":"Point","coordinates":[-122.2605518,37.8707002]}},{"type":"Feature","id":17,"properties":{"name":"Hearst Field Annex"},"geometry":{"type":"Point","coordinates":[-122.2581587,37.8694693]}},{"type":"Feature","id":20,"properties":{"name":"Wurster Hall"},"geometry":{"type":"Point","coordinates":[-122.2548935,37.8707352]}},{"type":"Feature","id":22,"properties":{"name":"Giannini Hall"},"geometry":{"type":"Point","coordinates":[-122.2622986,37.8735349]}},{"type":"Feature","id":23,"properties":{"name":"Genetics \u0026 Plant Biology"},"geometry":{"type":"Point","coordinates":[-122.2647492,37.8734357]}},{"type":"Feature","id":24,"properties":{"name":"Haviland"},"geometry":{"type":"Point","coordinates":[-122.2610484,37.8737118]}},{"type":"Feature","id":27,"properties":{"name":"Mulford"},"geometry":{"type":"Point","coordinates":[-122.2644811,37.8726096]}}]}