{"type":"FeatureCollection","features":[{"type":"Feature","id":4,"properties":{"name":"Moffit"},"geometry":{"type":"Point","coordinates":[-122.260748,37.872574]}},{"type":"Feature","id":16,"properties":{"name":"Haas Faculty Wing"},"geometry":{"type":"Point","coordinates":[-122.2537809,37.871558]}},{"type":"Feature","id":17,"properties":{"name":"Hearst Field Annex"},"geometry":{"type":"Point","coordinates":[-122.2581587,37.8694693]}},{"type":"Feature","id":19,"properties":{"name":"Kroeber Hall"},"geometry":{"type":"Point","coordinates":[-122.2551518,37.869853]}},{"type":"Feature","id":20,"properties":{"name":"Wurster Hall"},"geometry":{"type":"Point","coordinates":[-122.2548935,37.8707352]}},{"type":"Feature","id":21,"properties":{"name":"Barker Hall"},"geometry":{"type":"Point","coordinates":[-122.2654404,37.8739795]}},{"type":"Feature","id":26,"properties":{"name":"Morgan"},"geometry":{"type":"Point","coordinates":[-122.2642654,37.8733128]}},{"type":"Feature","id":27,"properties":{"name":"Mulford"},"geometry":{"type":"Point","coordinates":[-122.2644811,37.8726096]}}]}